{
"type": "FeatureCollection",
"name": "four",
"crs": { "type": "name", "properties": { "name": "urn:ogc:def:crs:OGC:1.3:CRS84" } },
"features": [
{ "type": "Feature", "properties": { "OBJECTID": 1, "name": "aalu" }, "geometry": { "type": "Point", "coordinates": [ 83.989382109000076, 29.106672470000035 ] } },
{ "type": "Feature", "properties": { "OBJECTID": 2, "name": "makai" }, "geometry": { "type": "Point", "coordinates": [ 81.790425096000035, 27.915380154000047 ] } },
{ "type": "Feature", "properties": { "OBJECTID": 3, "name": "pyaaj" }, "geometry": { "type": "Point", "coordinates": [ 88.06090497200006, 27.540119705000052 ] } },
{ "type": "Feature", "properties": { "OBJECTID": 4, "name": "golbheda" }, "geometry": { "type": "Point", "coordinates": [ 85.785875169000064, 27.845558137000069 ] } },
{ "type": "Feature", "properties": { "OBJECTID": 5, "name": "mitho" }, "geometry": { "type": "Point", "coordinates": [ 81.181618122000032, 29.856202687000064 ] } },
{ "type": "Feature", "properties": { "OBJECTID": 6, "name": "lito" }, "geometry": { "type": "Point", "coordinates": [ 84.40578778500003, 27.46484437600003 ] } }
]
}
